Trace #1 at position 0.000000
$GPGGA,221032.00,4820.91568462,N,12102.76481022,W,1,07,1.4,2063.963,M,-16.478,M,,*67
Trace #11 at position 10.000000
$GPGGA,221033.00,4820.91568195,N,12102.76481070,W,1,07,1.4,2063.953,M,-16.478,M,,*6F
Trace #21 at position 20.000000
$GPGGA,221035.00,4820.91565955,N,12102.76479503,W,1,07,1.4,2063.917,M,-16.478,M,,*66
Trace #31 at position 30.000000
$GPGGA,221036.00,4820.91565314,N,12102.76478902,W,1,07,1.4,2063.910,M,-16.478,M,,*61
Trace #41 at position 40.000000
$GPGGA,221037.00,4820.91564920,N,12102.76478279,W,1,07,1.4,2063.916,M,-16.478,M,,*6D
Trace #51 at position 50.000000
$GPGGA,221039.00,4820.91564051,N,12102.76476241,W,1,07,1.4,2063.890,M,-16.478,M,,*66
Trace #61 at position 60.000000
$GPGGA,221040.00,4820.91563503,N,12102.76475299,W,1,07,1.4,2063.871,M,-16.478,M,,*64
Trace #71 at position 70.000000
$GPGGA,221042.00,4820.91563381,N,12102.76473394,W,1,07,1.4,2063.807,M,-16.478,M,,*61
Trace #81 at position 80.000000
$GPGGA,221043.00,4820.91564838,N,12102.76473689,W,1,07,1.4,2063.789,M,-16.478,M,,*6E
Trace #91 at position 90.000000
$GPGGA,221044.00,4820.91566961,N,12102.76473833,W,1,07,1.4,2063.787,M,-16.478,M,,*67
Trace #101 at position 100.000000
$GPGGA,221046.00,4820.91570152,N,12102.76475204,W,1,07,1.4,2063.786,M,-16.478,M,,*63
Trace #111 at position 110.000000
$GPGGA,221047.00,4820.91571375,N,12102.76476252,W,1,07,1.4,2063.784,M,-16.478,M,,*66
Trace #121 at position 120.000000
$GPGGA,221049.00,4820.91573476,N,12102.76477819,W,1,07,1.4,2063.817,M,-16.478,M,,*6F
Trace #131 at position 130.000000
$GPGGA,221050.00,4820.91574109,N,12102.76479517,W,1,07,1.4,2063.830,M,-16.478,M,,*65
Trace #141 at position 140.000000
$GPGGA,221052.00,4820.91574503,N,12102.76480804,W,1,07,1.4,2063.848,M,-16.478,M,,*6F
Trace #151 at position 150.000000
$GPGGA,221053.00,4820.91574692,N,12102.76481173,W,1,07,1.4,2063.855,M,-16.478,M,,*61
Trace #161 at position 160.000000
$GPGGA,221054.00,4820.91574578,N,12102.76481169,W,1,07,1.4,2063.859,M,-16.478,M,,*66
Trace #171 at position 170.000000
$GPGGA,221056.00,4820.91573574,N,12102.76480486,W,1,07,1.4,2063.862,M,-16.478,M,,*62
Trace #181 at position 180.000000
$GPGGA,221057.00,4820.91573066,N,12102.76481011,W,1,07,1.4,2063.855,M,-16.478,M,,*6A
Trace #191 at position 190.000000
$GPGGA,221059.00,4820.91572376,N,12102.76480527,W,1,07,1.4,2063.868,M,-16.478,M,,*68
Trace #201 at position 200.000000
$GPGGA,221100.00,4820.91573009,N,12102.76480367,W,1,07,1.4,2063.905,M,-16.478,M,,*67
Trace #211 at position 210.000000
$GPGGA,221101.00,4820.91574219,N,12102.76480818,W,1,07,1.4,2063.971,M,-16.478,M,,*62
Trace #221 at position 220.000000
$GPGGA,221103.00,4820.91575067,N,12102.76481478,W,1,07,1.4,2063.977,M,-16.478,M,,*67
Trace #231 at position 230.000000
$GPGGA,221104.00,4820.91576098,N,12102.76481489,W,1,07,1.4,2063.972,M,-16.478,M,,*68
Trace #241 at position 240.000000
$GPGGA,221106.00,4820.91578479,N,12102.76482003,W,1,07,1.4,2063.964,M,-16.478,M,,*6D
Trace #251 at position 250.000000
$GPGGA,221107.00,4820.91580448,N,12102.76483697,W,1,07,1.4,2063.998,M,-16.478,M,,*60
Trace #261 at position 260.000000
$GPGGA,221108.00,4820.91582669,N,12102.76485342,W,1,07,1.4,2064.023,M,-16.478,M,,*69
Trace #271 at position 270.000000
$GPGGA,221110.00,4820.91586825,N,12102.76486677,W,1,07,1.4,2064.076,M,-16.478,M,,*62
Trace #281 at position 280.000000
$GPGGA,221111.00,4820.91587427,N,12102.76487465,W,1,07,1.4,2064.074,M,-16.478,M,,*6E
Trace #291 at position 290.000000
$GPGGA,221113.00,4820.91588115,N,12102.76488165,W,1,07,1.4,2064.118,M,-16.478,M,,*66
Trace #301 at position 300.000000
$GPGGA,221114.00,4820.91587580,N,12102.76487289,W,1,07,1.4,2064.107,M,-16.478,M,,*66
Trace #311 at position 310.000000
$GPGGA,221115.00,4820.91586647,N,12102.76486102,W,1,07,1.4,2064.049,M,-16.478,M,,*64
Trace #321 at position 320.000000
$GPGGA,221117.00,4820.91585175,N,12102.76484857,W,1,07,1.4,2064.034,M,-16.478,M,,*62
Trace #331 at position 330.000000
$GPGGA,221118.00,4820.91583813,N,12102.76483427,W,1,07,1.4,2063.993,M,-16.478,M,,*6D
Trace #341 at position 340.000000
$GPGGA,221120.00,4820.91582130,N,12102.76480301,W,1,07,1.4,2063.937,M,-16.478,M,,*61
Trace #351 at position 350.000000
$GPGGA,221121.00,4820.91581757,N,12102.76480086,W,1,07,1.4,2063.940,M,-16.478,M,,*68
Trace #361 at position 360.000000
$GPGGA,221123.00,4820.91580806,N,12102.76478687,W,1,07,1.4,2063.938,M,-16.478,M,,*6F
Trace #371 at position 370.000000
$GPGGA,221124.00,4820.91580897,N,12102.76478646,W,1,07,1.4,2063.935,M,-16.478,M,,*60
Trace #381 at position 380.000000
$GPGGA,221125.00,4820.91580943,N,12102.76478467,W,1,07,1.4,2063.946,M,-16.478,M,,*6C
Trace #391 at position 390.000000
$GPGGA,221127.00,4820.91581891,N,12102.76479228,W,1,07,1.4,2063.973,M,-16.478,M,,*6B
Trace #401 at position 400.000000
$GPGGA,221128.00,4820.91582807,N,12102.76481181,W,1,07,1.4,2063.995,M,-16.478,M,,*67
Trace #411 at position 410.000000
$GPGGA,221130.00,4820.91583873,N,12102.76482781,W,1,07,1.4,2063.998,M,-16.478,M,,*64
Trace #421 at position 420.000000
$GPGGA,221131.00,4820.91584901,N,12102.76483772,W,1,07,1.4,2064.029,M,-16.478,M,,*6F
Trace #431 at position 430.000000
$GPGGA,221132.00,4820.91584713,N,12102.76483732,W,1,07,1.4,2064.018,M,-16.478,M,,*67
Trace #441 at position 440.000000
$GPGGA,221134.00,4820.91585050,N,12102.76484151,W,1,07,1.4,2064.007,M,-16.478,M,,*6A
Trace #451 at position 450.000000
$GPGGA,221135.00,4820.91585521,N,12102.76484769,W,1,07,1.4,2064.034,M,-16.478,M,,*65
Trace #461 at position 460.000000
$GPGGA,221137.00,4820.91585596,N,12102.76482871,W,1,07,1.4,2063.990,M,-16.478,M,,*6B
Trace #471 at position 470.000000
$GPGGA,221138.00,4820.91585699,N,12102.76481551,W,1,07,1.4,2063.968,M,-16.478,M,,*63
Trace #481 at position 480.000000
$GPGGA,221139.00,4820.91585869,N,12102.76480374,W,1,07,1.4,2063.946,M,-16.478,M,,*6F
Trace #491 at position 490.000000
$GPGGA,221141.00,4820.91585768,N,12102.76480612,W,1,07,1.4,2063.898,M,-16.478,M,,*69
Trace #501 at position 500.000000
$GPGGA,221142.00,4820.91584705,N,12102.76521127,W,1,07,1.4,2063.905,M,-16.478,M,,*6E
Trace #511 at position 510.000000
$GPGGA,221144.00,4820.91572871,N,12102.76583945,W,1,07,1.4,2063.757,M,-16.478,M,,*60
Trace #521 at position 520.000000
$GPGGA,221145.00,4820.91554130,N,12102.76629788,W,1,07,1.4,2063.732,M,-16.478,M,,*66
Trace #531 at position 530.000000
$GPGGA,221147.00,4820.91541382,N,12102.76672536,W,1,07,1.4,2063.624,M,-16.478,M,,*64
Trace #541 at position 540.000000
$GPGGA,221148.00,4820.91522338,N,12102.76701337,W,1,07,1.4,2063.650,M,-16.478,M,,*6E
Trace #551 at position 550.000000
$GPGGA,221149.00,4820.91502880,N,12102.76737161,W,1,07,1.4,2063.706,M,-16.478,M,,*63
Trace #561 at position 560.000000
$GPGGA,221151.00,4820.91476041,N,12102.76787431,W,1,07,1.4,2063.719,M,-16.478,M,,*68
Trace #571 at position 570.000000
$GPGGA,221152.00,4820.91474676,N,12102.76788992,W,1,07,1.4,2063.728,M,-16.478,M,,*62
Trace #581 at position 580.000000
$GPGGA,221154.00,4820.91474731,N,12102.76788486,W,1,07,1.4,2063.747,M,-16.478,M,,*67
Trace #591 at position 590.000000
$GPGGA,221155.00,4820.91474342,N,12102.76788766,W,1,07,1.4,2063.757,M,-16.478,M,,*6A
Trace #601 at position 600.000000
$GPGGA,221156.00,4820.91474751,N,12102.76788825,W,1,07,1.4,2063.765,M,-16.478,M,,*66
Trace #611 at position 610.000000
$GPGGA,221158.00,4820.91475118,N,12102.76791414,W,1,07,1.4,2063.824,M,-16.478,M,,*6E
Trace #621 at position 620.000000
$GPGGA,221159.00,4820.91476265,N,12102.76791221,W,1,07,1.4,2063.855,M,-16.478,M,,*63
Trace #631 at position 630.000000
$GPGGA,221201.00,4820.91478835,N,12102.76790154,W,1,07,1.4,2063.917,M,-16.478,M,,*6B
Trace #641 at position 640.000000
$GPGGA,221202.00,4820.91479102,N,12102.76792035,W,1,07,1.4,2063.937,M,-16.478,M,,*62
Trace #651 at position 650.000000
$GPGGA,221203.00,4820.91479156,N,12102.76795939,W,1,07,1.4,2063.962,M,-16.478,M,,*60
Trace #661 at position 660.000000
$GPGGA,221205.00,4820.91479080,N,12102.76800163,W,1,07,1.4,2064.008,M,-16.478,M,,*6A
Trace #671 at position 670.000000
$GPGGA,221206.00,4820.91479396,N,12102.76800378,W,1,07,1.4,2064.016,M,-16.478,M,,*6A
Trace #681 at position 680.000000
$GPGGA,221208.00,4820.91480109,N,12102.76798942,W,1,07,1.4,2064.047,M,-16.478,M,,*6F
Trace #691 at position 690.000000
$GPGGA,221209.00,4820.91479438,N,12102.76798435,W,1,07,1.4,2064.024,M,-16.478,M,,*67
Trace #701 at position 700.000000
$GPGGA,221210.00,4820.91479060,N,12102.76797547,W,1,07,1.4,2063.997,M,-16.478,M,,*6B
Trace #711 at position 710.000000
$GPGGA,221212.00,4820.91479630,N,12102.76796373,W,1,07,1.4,2063.994,M,-16.478,M,,*69
Trace #721 at position 720.000000
$GPGGA,221213.00,4820.91479037,N,12102.76795867,W,1,07,1.4,2063.991,M,-16.478,M,,*61
Trace #731 at position 730.000000
$GPGGA,221215.00,4820.91477922,N,12102.76794755,W,1,07,1.4,2063.966,M,-16.478,M,,*63
Trace #741 at position 740.000000
$GPGGA,221216.00,4820.91478626,N,12102.76794878,W,1,07,1.4,2063.976,M,-16.478,M,,*65
Trace #751 at position 750.000000
$GPGGA,221217.00,4820.91477736,N,12102.76794245,W,1,07,1.4,2063.947,M,-16.478,M,,*6D
Trace #761 at position 760.000000
$GPGGA,221219.00,4820.91477219,N,12102.76793447,W,1,07,1.4,2063.914,M,-16.478,M,,*6E
Trace #771 at position 770.000000
$GPGGA,221220.00,4820.91477804,N,12102.76793909,W,1,07,1.4,2063.908,M,-16.478,M,,*68
Trace #781 at position 780.000000
$GPGGA,221222.00,4820.91478904,N,12102.76794245,W,1,07,1.4,2063.887,M,-16.478,M,,*66
Trace #791 at position 790.000000
$GPGGA,221223.00,4820.91476947,N,12102.76797080,W,1,07,1.4,2063.875,M,-16.478,M,,*6B
Trace #801 at position 800.000000
$GPGGA,221225.00,4820.91446652,N,12102.76850483,W,1,07,1.4,2063.804,M,-16.478,M,,*60
Trace #811 at position 810.000000
$GPGGA,221226.00,4820.91426371,N,12102.76884724,W,1,07,1.4,2063.846,M,-16.478,M,,*60
Trace #821 at position 820.000000
$GPGGA,221227.00,4820.91399015,N,12102.76929215,W,1,07,1.4,2063.846,M,-16.478,M,,*62
Trace #831 at position 830.000000
$GPGGA,221229.00,4820.91360930,N,12102.77000920,W,1,07,1.4,2063.819,M,-16.478,M,,*60
Trace #841 at position 840.000000
$GPGGA,221230.00,4820.91346021,N,12102.77034481,W,1,07,1.4,2063.807,M,-16.478,M,,*6B
Trace #851 at position 850.000000
$GPGGA,221232.00,4820.91322294,N,12102.77095926,W,1,07,1.4,2063.776,M,-16.478,M,,*65
Trace #861 at position 860.000000
$GPGGA,221233.00,4820.91306130,N,12102.77144963,W,1,07,1.4,2063.742,M,-16.478,M,,*64
Trace #871 at position 870.000000
$GPGGA,221234.00,4820.91296330,N,12102.77182293,W,1,07,1.4,2063.696,M,-16.478,M,,*6F
Trace #881 at position 880.000000
$GPGGA,221236.00,4820.91275001,N,12102.77285334,W,1,07,1.4,2063.603,M,-16.478,M,,*65
Trace #891 at position 890.000000
$GPGGA,221237.00,4820.91268292,N,12102.77339308,W,1,07,1.4,2063.555,M,-16.478,M,,*69
Trace #901 at position 900.000000
$GPGGA,221239.00,4820.91266388,N,12102.77443474,W,1,07,1.4,2063.435,M,-16.478,M,,*62
Trace #911 at position 910.000000
$GPGGA,221240.00,4820.91267698,N,12102.77482288,W,1,07,1.4,2063.394,M,-16.478,M,,*6D
Trace #921 at position 920.000000
$GPGGA,221241.00,4820.91278303,N,12102.77530649,W,1,07,1.4,2063.358,M,-16.478,M,,*64
Trace #931 at position 930.000000
$GPGGA,221243.00,4820.91312321,N,12102.77610643,W,1,07,1.4,2063.185,M,-16.478,M,,*62
Trace #941 at position 940.000000
$GPGGA,221244.00,4820.91336375,N,12102.77648932,W,1,07,1.4,2063.094,M,-16.478,M,,*67
Trace #951 at position 950.000000
$GPGGA,221246.00,4820.91390353,N,12102.77709752,W,1,07,1.4,2062.892,M,-16.478,M,,*6E
Trace #961 at position 960.000000
$GPGGA,221247.00,4820.91421915,N,12102.77727540,W,1,07,1.4,2062.804,M,-16.478,M,,*68
Trace #971 at position 970.000000
$GPGGA,221248.00,4820.91452629,N,12102.77730571,W,1,07,1.4,2062.743,M,-16.478,M,,*6B
Trace #981 at position 980.000000
$GPGGA,221250.00,4820.91516397,N,12102.77717177,W,1,07,1.4,2062.658,M,-16.478,M,,*6F
Trace #991 at position 990.000000
$GPGGA,221251.00,4820.91543505,N,12102.77698650,W,1,07,1.4,2062.590,M,-16.478,M,,*60
Trace #1001 at position 1000.000000
$GPGGA,221253.00,4820.91584222,N,12102.77652007,W,1,07,1.4,2062.571,M,-16.478,M,,*66
Trace #1011 at position 1010.000000
$GPGGA,221254.00,4820.91601473,N,12102.77614929,W,1,07,1.4,2062.586,M,-16.478,M,,*62
Trace #1021 at position 1020.000000
$GPGGA,221255.00,4820.91617266,N,12102.77581341,W,1,07,1.4,2062.593,M,-16.478,M,,*69
Trace #1031 at position 1030.000000
$GPGGA,221257.00,4820.91649137,N,12102.77500958,W,1,07,1.4,2062.588,M,-16.478,M,,*66
Trace #1041 at position 1040.000000
$GPGGA,221258.00,4820.91657656,N,12102.77467340,W,1,07,1.4,2062.650,M,-16.478,M,,*63
Trace #1051 at position 1050.000000
$GPGGA,221300.00,4820.91664765,N,12102.77446195,W,1,07,1.4,2062.703,M,-16.478,M,,*60
Trace #1061 at position 1060.000000
$GPGGA,221301.00,4820.91672789,N,12102.77414624,W,1,07,1.4,2062.761,M,-16.478,M,,*6A
Trace #1071 at position 1070.000000
$GPGGA,221303.00,4820.91681184,N,12102.77370873,W,1,07,1.4,2062.815,M,-16.478,M,,*6A
Trace #1081 at position 1080.000000
$GPGGA,221304.00,4820.91680915,N,12102.77370263,W,1,07,1.4,2062.796,M,-16.478,M,,*63
Trace #1091 at position 1090.000000
$GPGGA,221305.00,4820.91681222,N,12102.77369704,W,1,07,1.4,2062.792,M,-16.478,M,,*64
Trace #1101 at position 1100.000000
$GPGGA,221307.00,4820.91682214,N,12102.77369265,W,1,07,1.4,2062.767,M,-16.478,M,,*68
Trace #1111 at position 1110.000000
$GPGGA,221308.00,4820.91685117,N,12102.77358145,W,1,07,1.4,2062.776,M,-16.478,M,,*63
Trace #1121 at position 1120.000000
$GPGGA,221310.00,4820.91697566,N,12102.77309225,W,1,07,1.4,2062.845,M,-16.478,M,,*65
Trace #1131 at position 1130.000000
$GPGGA,221311.00,4820.91703556,N,12102.77278408,W,1,07,1.4,2062.869,M,-16.478,M,,*6B
Trace #1141 at position 1140.000000
$GPGGA,221312.00,4820.91706714,N,12102.77261463,W,1,07,1.4,2062.898,M,-16.478,M,,*62
Trace #1151 at position 1150.000000
$GPGGA,221314.00,4820.91722418,N,12102.77177180,W,1,07,1.4,2062.973,M,-16.478,M,,*65
Trace #1161 at position 1160.000000
$GPGGA,221315.00,4820.91731529,N,12102.77127778,W,1,07,1.4,2062.994,M,-16.478,M,,*68
Trace #1171 at position 1170.000000
$GPGGA,221317.00,4820.91746619,N,12102.77055824,W,1,07,1.4,2063.096,M,-16.478,M,,*62
Trace #1181 at position 1180.000000
$GPGGA,221318.00,4820.91757029,N,12102.77009992,W,1,07,1.4,2063.163,M,-16.478,M,,*66
Trace #1191 at position 1190.000000
$GPGGA,221319.00,4820.91766802,N,12102.76963147,W,1,07,1.4,2063.246,M,-16.478,M,,*64
Trace #1201 at position 1200.000000
$GPGGA,221321.00,4820.91785029,N,12102.76885411,W,1,07,1.4,2063.313,M,-16.478,M,,*6D
Trace #1211 at position 1210.000000
$GPGGA,221322.00,4820.91797984,N,12102.76840634,W,1,07,1.4,2063.361,M,-16.478,M,,*6A
Trace #1221 at position 1220.000000
$GPGGA,221324.00,4820.91823541,N,12102.76759433,W,1,07,1.4,2063.478,M,-16.478,M,,*64
Trace #1231 at position 1230.000000
$GPGGA,221325.00,4820.91833750,N,12102.76730695,W,1,07,1.4,2063.389,M,-16.478,M,,*6E
Trace #1241 at position 1240.000000
$GPGGA,221326.00,4820.91843684,N,12102.76715996,W,1,07,1.4,2063.341,M,-16.478,M,,*6D
Trace #1251 at position 1250.000000
$GPGGA,221328.00,4820.91862656,N,12102.76676006,W,1,07,1.4,2063.377,M,-16.478,M,,*6E
Trace #1261 at position 1260.000000
$GPGGA,221329.00,4820.91861387,N,12102.76675979,W,1,07,1.4,2063.396,M,-16.478,M,,*68
Trace #1271 at position 1270.000000
$GPGGA,221331.00,4820.91861061,N,12102.76677507,W,1,07,1.4,2063.460,M,-16.478,M,,*63
Trace #1281 at position 1280.000000
$GPGGA,221332.00,4820.91861144,N,12102.76678643,W,1,07,1.4,2063.502,M,-16.478,M,,*6F
Trace #1291 at position 1290.000000
$GPGGA,221333.00,4820.91861363,N,12102.76679960,W,1,07,1.4,2063.545,M,-16.478,M,,*65
Trace #1301 at position 1300.000000
$GPGGA,221335.00,4820.91862458,N,12102.76683873,W,1,07,1.4,2063.661,M,-16.478,M,,*6C
Trace #1311 at position 1310.000000
$GPGGA,221336.00,4820.91863195,N,12102.76686697,W,1,07,1.4,2063.729,M,-16.478,M,,*66
Trace #1321 at position 1320.000000
$GPGGA,221338.00,4820.91865051,N,12102.76691053,W,1,07,1.4,2063.820,M,-16.478,M,,*69
Trace #1331 at position 1330.000000
$GPGGA,221339.00,4820.91865420,N,12102.76692620,W,1,07,1.4,2063.862,M,-16.478,M,,*6D
Trace #1341 at position 1340.000000
$GPGGA,221341.00,4820.91865442,N,12102.76694895,W,1,07,1.4,2063.916,M,-16.478,M,,*62
Trace #1351 at position 1350.000000
$GPGGA,221342.00,4820.91865119,N,12102.76695498,W,1,07,1.4,2063.925,M,-16.478,M,,*6A
Trace #1361 at position 1360.000000
$GPGGA,221343.00,4820.91864513,N,12102.76695853,W,1,07,1.4,2063.948,M,-16.478,M,,*64
Trace #1371 at position 1370.000000
$GPGGA,221345.00,4820.91863072,N,12102.76695287,W,1,07,1.4,2063.984,M,-16.478,M,,*64
Trace #1381 at position 1380.000000
$GPGGA,221346.00,4820.91862240,N,12102.76694736,W,1,07,1.4,2063.989,M,-16.478,M,,*66
Trace #1391 at position 1390.000000
$GPGGA,221348.00,4820.91861217,N,12102.76694274,W,1,07,1.4,2063.984,M,-16.478,M,,*67
Trace #1401 at position 1400.000000
$GPGGA,221349.00,4820.91860453,N,12102.76692662,W,1,07,1.4,2063.950,M,-16.478,M,,*6D
Trace #1411 at position 1410.000000
$GPGGA,221350.00,4820.91857796,N,12102.76740621,W,1,06,1.6,2065.398,M,-16.478,M,,*69
Trace #1421 at position 1420.000000
$GPGGA,221352.00,4820.91859236,N,12102.76687519,W,1,07,1.4,2063.818,M,-16.478,M,,*6E
Trace #1431 at position 1430.000000
$GPGGA,221353.00,4820.91859526,N,12102.76686382,W,1,07,1.4,2063.778,M,-16.478,M,,*65
Trace #1441 at position 1440.000000
$GPGGA,221355.00,4820.91860501,N,12102.76685137,W,1,07,1.4,2063.740,M,-16.478,M,,*68
Trace #1451 at position 1450.000000
$GPGGA,221356.00,4820.91861425,N,12102.76685276,W,1,07,1.4,2063.742,M,-16.478,M,,*69
Trace #1461 at position 1460.000000
$GPGGA,221357.00,4820.91861720,N,12102.76686016,W,1,07,1.4,2063.757,M,-16.478,M,,*6D
Trace #1471 at position 1470.000000
$GPGGA,221359.00,4820.91863463,N,12102.76688843,W,1,07,1.4,2063.795,M,-16.478,M,,*6D
Trace #1481 at position 1480.000000
$GPGGA,221400.00,4820.91864446,N,12102.76690115,W,1,07,1.4,2063.821,M,-16.478,M,,*65
Trace #1491 at position 1490.000000
$GPGGA,221402.00,4820.91865358,N,12102.76692195,W,1,07,1.4,2063.862,M,-16.478,M,,*63
Trace #1501 at position 1500.000000
$GPGGA,221403.00,4820.91865764,N,12102.76692848,W,1,07,1.4,2063.892,M,-16.478,M,,*6F
Trace #1511 at position 1510.000000
$GPGGA,221405.00,4820.91865609,N,12102.76694288,W,1,07,1.4,2063.952,M,-16.478,M,,*6E
Trace #1521 at position 1520.000000
$GPGGA,221406.00,4820.91865376,N,12102.76694371,W,1,07,1.4,2063.970,M,-16.478,M,,*67
Trace #1531 at position 1530.000000
$GPGGA,221407.00,4820.91864462,N,12102.76694644,W,1,07,1.4,2063.988,M,-16.478,M,,*61
Trace #1541 at position 1540.000000
$GPGGA,221409.00,4820.91862645,N,12102.76695152,W,1,07,1.4,2064.018,M,-16.478,M,,*68
Trace #1551 at position 1550.000000
$GPGGA,221410.00,4820.91861742,N,12102.76694335,W,1,07,1.4,2064.017,M,-16.478,M,,*68
Trace #1561 at position 1560.000000
$GPGGA,221412.00,4820.91860578,N,12102.76693286,W,1,07,1.4,2064.030,M,-16.478,M,,*6B
Trace #1571 at position 1570.000000
$GPGGA,221413.00,4820.91860114,N,12102.76693120,W,1,07,1.4,2064.033,M,-16.478,M,,*68
Trace #1581 at position 1580.000000
$GPGGA,221414.00,4820.91859974,N,12102.76692766,W,1,07,1.4,2064.028,M,-16.478,M,,*64
Trace #1591 at position 1590.000000
$GPGGA,221416.00,4820.91860418,N,12102.76692104,W,1,07,1.4,2063.984,M,-16.478,M,,*61
Trace #1601 at position 1600.000000
$GPGGA,221417.00,4820.91861005,N,12102.76691409,W,1,07,1.4,2063.972,M,-16.478,M,,*6B
Trace #1611 at position 1610.000000
$GPGGA,221419.00,4820.91862112,N,12102.76690777,W,1,07,1.4,2063.929,M,-16.478,M,,*64
Trace #1621 at position 1620.000000
$GPGGA,221420.00,4820.91862934,N,12102.76690252,W,1,07,1.4,2063.906,M,-16.478,M,,*6D
Trace #1631 at position 1630.000000
$GPGGA,221421.00,4820.91863672,N,12102.76690557,W,1,07,1.4,2063.894,M,-16.478,M,,*68
Trace #1641 at position 1640.000000
$GPGGA,221423.00,4820.91863976,N,12102.76689476,W,1,07,1.4,2063.860,M,-16.478,M,,*60
Trace #1651 at position 1650.000000
$GPGGA,221424.00,4820.91864189,N,12102.76688727,W,1,07,1.4,2063.843,M,-16.478,M,,*6F
Trace #1661 at position 1660.000000
$GPGGA,221426.00,4820.91863921,N,12102.76687902,W,1,07,1.4,2063.830,M,-16.478,M,,*62
Trace #1671 at position 1670.000000
$GPGGA,221427.00,4820.91863625,N,12102.76687612,W,1,07,1.4,2063.820,M,-16.478,M,,*67
Trace #1681 at position 1680.000000
$GPGGA,221428.00,4820.91864006,N,12102.76687846,W,1,07,1.4,2063.829,M,-16.478,M,,*6E
Trace #1691 at position 1690.000000
$GPGGA,221430.00,4820.91862964,N,12102.76687244,W,1,07,1.4,2063.821,M,-16.478,M,,*6C
Trace #1701 at position 1700.000000
$GPGGA,221431.00,4820.91863039,N,12102.76687450,W,1,07,1.4,2063.839,M,-16.478,M,,*67
Trace #1711 at position 1710.000000
$GPGGA,221433.00,4820.91862094,N,12102.76687689,W,1,07,1.4,2063.857,M,-16.478,M,,*6D
Trace #1721 at position 1720.000000
$GPGGA,221434.00,4820.91861617,N,12102.76687646,W,1,07,1.4,2063.847,M,-16.478,M,,*66
Trace #1731 at position 1730.000000
$GPGGA,221436.00,4820.91973593,N,12102.76715249,W,1,06,2.0,2067.300,M,-16.478,M,,*62
Trace #1741 at position 1740.000000
$GPGGA,221437.00,4820.91973890,N,12102.76716203,W,1,06,2.0,2067.264,M,-16.478,M,,*63
Trace #1751 at position 1750.000000
$GPGGA,221438.00,4820.91968289,N,12102.76714587,W,1,06,2.0,2067.111,M,-16.478,M,,*6C
Trace #1761 at position 1760.000000
$GPGGA,221440.00,4820.91973592,N,12102.76717995,W,1,06,2.0,2067.209,M,-16.478,M,,*62
Trace #1771 at position 1770.000000
$GPGGA,221441.00,4820.91974885,N,12102.76718198,W,1,06,2.0,2067.215,M,-16.478,M,,*68
Trace #1781 at position 1780.000000
$GPGGA,221443.00,4820.91975970,N,12102.76718233,W,1,06,2.0,2067.204,M,-16.478,M,,*62
Trace #1791 at position 1790.000000
$GPGGA,221444.00,4820.91975791,N,12102.76717628,W,1,06,2.0,2067.184,M,-16.478,M,,*6E
Trace #1801 at position 1800.000000
$GPGGA,221445.00,4820.91974653,N,12102.76716179,W,1,06,2.0,2067.121,M,-16.478,M,,*6C
Trace #1811 at position 1810.000000
$GPGGA,221447.00,4820.91973985,N,12102.76714506,W,1,06,2.0,2067.065,M,-16.478,M,,*62
Trace #1821 at position 1820.000000
$GPGGA,221448.00,4820.91973350,N,12102.76713317,W,1,06,2.0,2067.033,M,-16.478,M,,*6D
Trace #1831 at position 1830.000000
$GPGGA,221450.00,4820.91973311,N,12102.76712468,W,1,06,2.0,2067.017,M,-16.478,M,,*69
Trace #1841 at position 1840.000000
$GPGGA,221451.00,4820.91971801,N,12102.76711193,W,1,06,2.0,2066.994,M,-16.478,M,,*61
Trace #1851 at position 1850.000000
$GPGGA,221452.00,4820.91970997,N,12102.76710562,W,1,06,2.0,2066.972,M,-16.478,M,,*6E
Trace #1861 at position 1860.000000
$GPGGA,221454.00,4820.91947385,N,12102.76703339,W,1,07,1.4,2066.267,M,-16.478,M,,*66
Trace #1871 at position 1870.000000
$GPGGA,221455.00,4820.91848353,N,12102.76679681,W,1,07,1.4,2063.230,M,-16.478,M,,*6F
Trace #1881 at position 1880.000000
$GPGGA,221457.00,4820.91850712,N,12102.76679846,W,1,07,1.4,2063.304,M,-16.478,M,,*66
Trace #1891 at position 1890.000000
$GPGGA,221458.00,4820.91853371,N,12102.76681130,W,1,07,1.4,2063.380,M,-16.478,M,,*68
Trace #1901 at position 1900.000000
$GPGGA,221459.00,4820.91854843,N,12102.76681465,W,1,07,1.4,2063.431,M,-16.478,M,,*6C
Trace #1911 at position 1910.000000
$GPGGA,221501.00,4820.91857188,N,12102.76683286,W,1,07,1.4,2063.471,M,-16.478,M,,*60
Trace #1921 at position 1920.000000
$GPGGA,221502.00,4820.91858462,N,12102.76684016,W,1,07,1.4,2063.498,M,-16.478,M,,*66
Trace #1931 at position 1930.000000
$GPGGA,221504.00,4820.91859760,N,12102.76684933,W,1,07,1.4,2063.501,M,-16.478,M,,*6F
Trace #1941 at position 1940.000000
$GPGGA,221505.00,4820.91859065,N,12102.76684036,W,1,07,1.4,2063.459,M,-16.478,M,,*6C
Trace #1951 at position 1950.000000
$GPGGA,221507.00,4820.91857025,N,12102.76682433,W,1,07,1.4,2063.380,M,-16.478,M,,*60
Trace #1961 at position 1960.000000
$GPGGA,221508.00,4820.91856041,N,12102.76681911,W,1,07,1.4,2063.363,M,-16.478,M,,*6F
Trace #1971 at position 1970.000000
$GPGGA,221509.00,4820.91855852,N,12102.76680937,W,1,07,1.4,2063.361,M,-16.478,M,,*60
Trace #1981 at position 1980.000000
$GPGGA,221511.00,4820.91854688,N,12102.76679452,W,1,07,1.4,2063.337,M,-16.478,M,,*6A
Trace #1991 at position 1990.000000
$GPGGA,221512.00,4820.91853351,N,12102.76678009,W,1,07,1.4,2063.310,M,-16.478,M,,*61
Trace #2001 at position 2000.000000
$GPGGA,221514.00,4820.91851656,N,12102.76676076,W,1,07,1.4,2063.264,M,-16.478,M,,*63
Trace #2011 at position 2010.000000
$GPGGA,221515.00,4820.91850752,N,12102.76675427,W,1,07,1.4,2063.253,M,-16.478,M,,*61
Trace #2021 at position 2020.000000
$GPGGA,221516.00,4820.91850811,N,12102.76675404,W,1,07,1.4,2063.274,M,-16.478,M,,*6E
Trace #2031 at position 2030.000000
$GPGGA,221518.00,4820.91852182,N,12102.76675265,W,1,07,1.4,2063.330,M,-16.478,M,,*61
Trace #2041 at position 2040.000000
$GPGGA,221519.00,4820.91852517,N,12102.76674903,W,1,07,1.4,2063.360,M,-16.478,M,,*67
Trace #2051 at position 2050.000000
$GPGGA,221521.00,4820.91853675,N,12102.76675573,W,1,07,1.4,2063.379,M,-16.478,M,,*68
Trace #2061 at position 2060.000000
$GPGGA,221522.00,4820.91853276,N,12102.76676213,W,1,07,1.4,2063.370,M,-16.478,M,,*67
Trace #2071 at position 2070.000000
$GPGGA,221523.00,4820.91853422,N,12102.76676009,W,1,07,1.4,2063.358,M,-16.478,M,,*62
Trace #2081 at position 2080.000000
$GPGGA,221525.00,4820.91849361,N,12102.76728133,W,1,06,1.6,2064.918,M,-16.478,M,,*67
Trace #2091 at position 2090.000000
$GPGGA,221526.00,4820.91850592,N,12102.76728648,W,1,06,1.6,2064.935,M,-16.478,M,,*62
Trace #2101 at position 2100.000000
$GPGGA,221528.00,4820.91850149,N,12102.76727585,W,1,06,1.6,2064.920,M,-16.478,M,,*67
Trace #2111 at position 2110.000000
$GPGGA,221529.00,4820.91850247,N,12102.76727781,W,1,06,1.6,2064.915,M,-16.478,M,,*6B
Trace #2121 at position 2120.000000
$GPGGA,221530.00,4820.91849729,N,12102.76726948,W,1,06,1.6,2064.891,M,-16.478,M,,*61
Trace #2131 at position 2130.000000
$GPGGA,221532.00,4820.91847856,N,12102.76728195,W,1,06,1.6,2064.890,M,-16.478,M,,*6D
Trace #2141 at position 2140.000000
$GPGGA,221533.00,4820.91847640,N,12102.76727830,W,1,06,1.6,2064.908,M,-16.478,M,,*6C
Trace #2151 at position 2150.000000
$GPGGA,221535.00,4820.91847354,N,12102.76727071,W,1,06,1.6,2064.945,M,-16.478,M,,*6E
Trace #2161 at position 2160.000000
$GPGGA,221536.00,4820.91847147,N,12102.76726739,W,1,06,1.6,2064.951,M,-16.478,M,,*62
Trace #2171 at position 2170.000000
$GPGGA,221537.00,4820.91846704,N,12102.76726268,W,1,06,1.6,2064.945,M,-16.478,M,,*67
Trace #2181 at position 2180.000000
$GPGGA,221539.00,4820.91846264,N,12102.76726107,W,1,06,1.6,2064.944,M,-16.478,M,,*61
Trace #2191 at position 2190.000000
$GPGGA,221540.00,4820.91846158,N,12102.76725638,W,1,06,1.6,2064.936,M,-16.478,M,,*6E
Trace #2201 at position 2200.000000
$GPGGA,221542.00,4820.91847955,N,12102.76723194,W,1,07,1.4,2064.869,M,-16.478,M,,*67
Trace #2211 at position 2210.000000
$GPGGA,221543.00,4820.91849830,N,12102.76714021,W,1,07,1.4,2064.602,M,-16.478,M,,*62
Trace #2221 at position 2220.000000
$GPGGA,221545.00,4820.91850419,N,12102.76719019,W,1,07,1.4,2064.770,M,-16.478,M,,*69
Trace #2231 at position 2230.000000
$GPGGA,221546.00,4820.91851060,N,12102.76720336,W,1,07,1.4,2064.825,M,-16.478,M,,*6A
Trace #2241 at position 2240.000000
$GPGGA,221547.00,4820.91850876,N,12102.76721357,W,1,07,1.4,2064.855,M,-16.478,M,,*64
Trace #2251 at position 2250.000000
$GPGGA,221549.00,4820.91850245,N,12102.76726368,W,1,07,1.4,2064.975,M,-16.478,M,,*68
Trace #2261 at position 2260.000000
$GPGGA,221550.00,4820.91849831,N,12102.76725879,W,1,07,1.4,2064.965,M,-16.478,M,,*68
Trace #2271 at position 2270.000000
$GPGGA,221552.00,4820.91849752,N,12102.76722199,W,1,07,1.4,2064.892,M,-16.478,M,,*69
Trace #2281 at position 2280.000000
$GPGGA,221553.00,4820.91849996,N,12102.76721064,W,1,07,1.4,2064.864,M,-16.478,M,,*67
Trace #2291 at position 2290.000000
$GPGGA,221554.00,4820.91849995,N,12102.76718485,W,1,07,1.4,2064.811,M,-16.478,M,,*60
Trace #2301 at position 2300.000000
$GPGGA,221556.00,4820.91850236,N,12102.76710490,W,1,07,1.4,2064.594,M,-16.478,M,,*64
Trace #2311 at position 2310.000000
$GPGGA,221557.00,4820.91850176,N,12102.76705277,W,1,07,1.4,2064.458,M,-16.478,M,,*68
Trace #2321 at position 2320.000000
$GPGGA,221559.00,4820.91850462,N,12102.76696018,W,1,07,1.4,2064.192,M,-16.478,M,,*65
Trace #2331 at position 2330.000000
$GPGGA,221600.00,4820.91850951,N,12102.76691495,W,1,07,1.4,2064.047,M,-16.478,M,,*68
Trace #2341 at position 2340.000000
$GPGGA,221601.00,4820.91851577,N,12102.76686770,W,1,07,1.4,2063.904,M,-16.478,M,,*67
Trace #2351 at position 2350.000000
$GPGGA,221603.00,4820.91853490,N,12102.76682821,W,1,07,1.4,2063.775,M,-16.478,M,,*68
Trace #2361 at position 2360.000000
$GPGGA,221604.00,4820.91854477,N,12102.76682634,W,1,07,1.4,2063.735,M,-16.478,M,,*6F
Trace #2371 at position 2370.000000
$GPGGA,221606.00,4820.91856706,N,12102.76681785,W,1,07,1.4,2063.662,M,-16.478,M,,*61
Trace #2381 at position 2380.000000
$GPGGA,221607.00,4820.91965244,N,12102.76705280,W,1,06,1.9,2066.930,M,-16.478,M,,*6E
Trace #2391 at position 2390.000000
$GPGGA,221608.00,4820.91965722,N,12102.76704635,W,1,06,1.9,2066.915,M,-16.478,M,,*68
Trace #2401 at position 2400.000000
$GPGGA,221610.00,4820.91964426,N,12102.76703583,W,1,06,1.9,2066.830,M,-16.478,M,,*68
Trace #2411 at position 2410.000000
$GPGGA,221611.00,4820.91963703,N,12102.76703504,W,1,06,1.9,2066.819,M,-16.478,M,,*6E
Trace #2421 at position 2420.000000
$GPGGA,221613.00,4820.91964483,N,12102.76704132,W,1,06,1.9,2066.842,M,-16.478,M,,*68
Trace #2431 at position 2430.000000
$GPGGA,221614.00,4820.91962648,N,12102.76703152,W,1,06,1.9,2066.831,M,-16.478,M,,*69
Trace #2441 at position 2440.000000
$GPGGA,221615.00,4820.91961505,N,12102.76702939,W,1,06,1.9,2066.791,M,-16.478,M,,*60
Trace #2451 at position 2450.000000
$GPGGA,221617.00,4820.91959437,N,12102.76701985,W,1,06,1.9,2066.781,M,-16.478,M,,*6C
Trace #2461 at position 2460.000000
$GPGGA,221618.00,4820.91960319,N,12102.76702280,W,1,06,1.9,2066.800,M,-16.478,M,,*69
Trace #2471 at position 2470.000000
$GPGGA,221620.00,4820.91960457,N,12102.76702366,W,1,06,1.9,2066.806,M,-16.478,M,,*60
Trace #2481 at position 2480.000000
$GPGGA,221621.00,4820.91959218,N,12102.76702489,W,1,06,1.9,2066.776,M,-16.478,M,,*68
Trace #2491 at position 2490.000000
$GPGGA,221623.00,4820.91939665,N,12102.76698192,W,1,07,1.3,2066.139,M,-16.478,M,,*69
Trace #2501 at position 2500.000000
$GPGGA,221624.00,4820.91939817,N,12102.76697763,W,1,07,1.3,2066.119,M,-16.478,M,,*60
Trace #2511 at position 2510.000000
$GPGGA,221625.00,4820.91940847,N,12102.76697858,W,1,07,1.3,2066.121,M,-16.478,M,,*66
Trace #2521 at position 2520.000000
$GPGGA,221627.00,4820.91848288,N,12102.76675268,W,1,07,1.3,2063.270,M,-16.478,M,,*63
Trace #2531 at position 2530.000000
$GPGGA,221628.00,4820.91851303,N,12102.76674998,W,1,07,1.3,2063.312,M,-16.478,M,,*66
Trace #2541 at position 2540.000000
$GPGGA,221630.00,4820.91852100,N,12102.76673164,W,1,07,1.3,2063.300,M,-16.478,M,,*62
Trace #2551 at position 2550.000000
$GPGGA,221631.00,4820.91851493,N,12102.76673597,W,1,07,1.3,2063.329,M,-16.478,M,,*6C
Trace #2561 at position 2560.000000
$GPGGA,221632.00,4820.91851685,N,12102.76672860,W,1,07,1.3,2063.305,M,-16.478,M,,*60
Trace #2571 at position 2570.000000
$GPGGA,221634.00,4820.91850298,N,12102.76667396,W,1,07,1.3,2063.116,M,-16.478,M,,*69
Trace #2581 at position 2580.000000
$GPGGA,221635.00,4820.91850647,N,12102.76666886,W,1,07,1.3,2063.106,M,-16.478,M,,*64
Trace #2591 at position 2590.000000
$GPGGA,221637.00,4820.91850731,N,12102.76666685,W,1,07,1.3,2063.101,M,-16.478,M,,*6C
Trace #2601 at position 2600.000000
$GPGGA,221638.00,4820.91850510,N,12102.76666651,W,1,07,1.3,2063.117,M,-16.478,M,,*6C
Trace #2611 at position 2610.000000
$GPGGA,221639.00,4820.91850212,N,12102.76666587,W,1,07,1.3,2063.116,M,-16.478,M,,*61
Trace #2621 at position 2620.000000
$GPGGA,221641.00,4820.91848457,N,12102.76665820,W,1,07,1.3,2063.061,M,-16.478,M,,*62
Trace #2631 at position 2630.000000
$GPGGA,221642.00,4820.91847479,N,12102.76665907,W,1,07,1.3,2063.033,M,-16.478,M,,*61
Trace #2641 at position 2640.000000
$GPGGA,221644.00,4820.91846797,N,12102.76665915,W,1,07,1.3,2062.992,M,-16.478,M,,*65
Trace #2651 at position 2650.000000
$GPGGA,221645.00,4820.91846492,N,12102.76665767,W,1,07,1.3,2062.963,M,-16.478,M,,*67
Trace #2661 at position 2660.000000
$GPGGA,221646.00,4820.91846199,N,12102.76666351,W,1,07,1.3,2062.958,M,-16.478,M,,*60
Trace #2671 at position 2670.000000
$GPGGA,221648.00,4820.91846585,N,12102.76666185,W,1,07,1.3,2062.962,M,-16.478,M,,*65
Trace #2681 at position 2680.000000
$GPGGA,221649.00,4820.91846544,N,12102.76665664,W,1,07,1.3,2062.948,M,-16.478,M,,*6A
Trace #2691 at position 2690.000000
$GPGGA,221651.00,4820.91847021,N,12102.76666495,W,1,07,1.3,2062.976,M,-16.478,M,,*66
Trace #2701 at position 2700.000000
$GPGGA,221652.00,4820.91838658,N,12102.76719876,W,1,06,1.5,2064.563,M,-16.478,M,,*64
Trace #2711 at position 2710.000000
$GPGGA,221654.00,4820.91838622,N,12102.76720505,W,1,06,1.5,2064.586,M,-16.478,M,,*67
Trace #2721 at position 2720.000000
$GPGGA,221655.00,4820.91838597,N,12102.76720414,W,1,06,1.5,2064.585,M,-16.478,M,,*69
Trace #2731 at position 2730.000000
$GPGGA,221656.00,4820.91838670,N,12102.76720532,W,1,06,1.5,2064.587,M,-16.478,M,,*67
Trace #2741 at position 2740.000000
$GPGGA,221658.00,4820.91838907,N,12102.76720876,W,1,06,1.5,2064.609,M,-16.478,M,,*6E
Trace #2751 at position 2750.000000
$GPGGA,221659.00,4820.91838873,N,12102.76720921,W,1,06,1.5,2064.616,M,-16.478,M,,*60
Trace #2761 at position 2760.000000
$GPGGA,221701.00,4820.91838812,N,12102.76720466,W,1,06,1.5,2064.597,M,-16.478,M,,*6F
Trace #2771 at position 2770.000000
$GPGGA,221702.00,4820.91838535,N,12102.76720019,W,1,06,1.5,2064.583,M,-16.478,M,,*6D
